[
    {
        "user_id": "3b041051-6123-4dac-a905-f2545ab23e9d",
        "name": "Jessica Baker",
        "email": "roberthebert@example.net",
        "address": "074 Smith Glens Suite 490\nSouth Danielland, CO 22441, Seattle",
        "join_date": "2023-01-27",
        "location": {
            "type": "Point",
            "coordinates": [
                -122.3321,
                47.6062
            ]
        }
    },
    {
        "user_id": "5c52694e-f925-43e8-93b4-a00d1ae0367f",
        "name": "Matthew Austin",
        "email": "theresajones@example.org",
        "address": "2005 Hernandez Stream Suite 338\nNorth Melissamouth, CT 90331, San Jose",
        "join_date": "2023-11-15",
        "location": {
            "type": "Point",
            "coordinates": [
                -121.8863,
                37.3382
            ]
        }
    },
    {
        "user_id": "057fd188-78c6-419f-85e6-2ad9a3a3c7d0",
        "name": "Scott Steele",
        "email": "brandonsmith@example.org",
        "address": "98031 Maureen Mall Suite 260\nJasonmouth, MS 97120, Rio de Janeiro",
        "join_date": "2020-08-07",
        "location": {
            "type": "Point",
            "coordinates": [
                -43.1729,
                -22.9068
            ]
        }
    },
    {
        "user_id": "5319aee9-6afa-49c9-85b1-7f21c42eb4a4",
        "name": "Andrew Mason",
        "email": "patrickcarter@example.com",
        "address": "68586 Wagner Lane\nMccoyland, WY 64218, Cape Town",
        "join_date": "2022-12-03",
        "location": {
            "type": "Point",
            "coordinates": [
                18.4241,
                -33.9249
            ]
        }
    },
    {
        "user_id": "d609f2c5-ece2-40ab-b3fc-36bc0c9cce86",
        "name": "Steven Schmidt",
        "email": "lphillips@example.org",
        "address": "231 David Village Apt. 764\nJenniferberg, AR 96887, Anaheim",
        "join_date": "2021-01-23",
        "location": {
            "type": "Point",
            "coordinates": [
                -117.9143,
                33.8366
            ]
        }
    },
    {
        "user_id": "13073349-eae7-4b81-bc61-31801e8aea62",
        "name": "Ronald Walker",
        "email": "lopezterri@example.com",
        "address": "517 Kimberly Manor\nRamirezberg, IN 14570, New York",
        "join_date": "2022-11-18",
        "location": {
            "type": "Point",
            "coordinates": [
                -74.006,
                40.7128
            ]
        }
    },
    {
        "user_id": "cabfe384-bfe2-406d-872f-a43894b85ee4",
        "name": "Gloria Summers",
        "email": "andreamiles@example.net",
        "address": "59379 Howe Knoll Suite 112\nHawkinsberg, UT 86791, Dallas",
        "join_date": "2020-03-25",
        "location": {
            "type": "Point",
            "coordinates": [
                -96.797,
                32.7767
            ]
        }
    },
    {
        "user_id": "e4eea7f3-57f4-47c0-9230-54ae05723688",
        "name": "Dominique Hopkins",
        "email": "misty68@example.org",
        "address": "464 Scott Square Suite 959\nEast Ashleyfurt, TX 24497, Toronto",
        "join_date": "2023-09-30",
        "location": {
            "type": "Point",
            "coordinates": [
                -79.347015,
                43.65107
            ]
        }
    },
    {
        "user_id": "c504ba57-7a5d-454b-a05c-313a7536463c",
        "name": "Michael Dean",
        "email": "allenelizabeth@example.org",
        "address": "27904 Thompson Street\nScottshire, MA 75227, San Antonio",
        "join_date": "2020-06-10",
        "location": {
            "type": "Point",
            "coordinates": [
                -98.4936,
                29.4241
            ]
        }
    },
    {
        "user_id": "09266fc8-2bf8-4e20-a008-e447cd1dba0e",
        "name": "Erica Morton",
        "email": "wesleybrown@example.net",
        "address": "8285 Hernandez Glens Apt. 792\nRuthbury, NM 90047, Charlotte",
        "join_date": "2023-07-10",
        "location": {
            "type": "Point",
            "coordinates": [
                -80.8431,
                35.2271
            ]
        }
    },
    {
        "user_id": "8f4bf147-5201-44d6-bfba-aa9677fe06ef",
        "name": "Shannon Keller",
        "email": "kathrynwilliams@example.net",
        "address": "308 Simmons Village Suite 351\nHopkinsmouth, AL 34523, Denver",
        "join_date": "2023-11-19",
        "location": {
            "type": "Point",
            "coordinates": [
                -104.9903,
                39.7392
            ]
        }
    },
    {
        "user_id": "b2440d41-2691-4521-bb83-904fdc16ad4e",
        "name": "Dale Porter",
        "email": "brooksamanda@example.org",
        "address": "54961 Mills Run\nBrittneyshire, IL 40266, Santa Ana",
        "join_date": "2023-11-02",
        "location": {
            "type": "Point",
            "coordinates": [
                -117.8677,
                33.7455
            ]
        }
    },
    {
        "user_id": "1b0288c8-dc47-4439-8ad6-aa5ccf0a939c",
        "name": "John Huffman",
        "email": "allen26@example.org",
        "address": "9626 Chris Knolls Apt. 215\nOwensborough, GU 70186, Seattle",
        "join_date": "2022-01-01",
        "location": {
            "type": "Point",
            "coordinates": [
                -122.3321,
                47.6062
            ]
        }
    },
    {
        "user_id": "3c39f66b-599a-4076-b8fb-2eb778d9bcfc",
        "name": "Makayla Pruitt",
        "email": "hardyheidi@example.com",
        "address": "8979 Bryan Skyway Apt. 579\nSchultzton, MA 83365, New York",
        "join_date": "2020-09-11",
        "location": {
            "type": "Point",
            "coordinates": [
                -74.006,
                40.7128
            ]
        }
    },
    {
        "user_id": "56c62d87-5394-47cc-acec-b30d54139d84",
        "name": "Walter Hart",
        "email": "mclaughlinjoshua@example.net",
        "address": "5698 Cabrera Way\nEast Williamberg, LA 33622, Mumbai",
        "join_date": "2022-07-29",
        "location": {
            "type": "Point",
            "coordinates": [
                72.8777,
                19.076
            ]
        }
    },
    {
        "user_id": "83a2b334-8adb-4f4a-a335-87474184d3a7",
        "name": "Tyler Johnston",
        "email": "martinezyolanda@example.net",
        "address": "937 Michael Haven Suite 499\nCarterfort, KY 79762, Cleveland",
        "join_date": "2021-09-09",
        "location": {
            "type": "Point",
            "coordinates": [
                -81.6944,
                41.4993
            ]
        }
    },
    {
        "user_id": "da5c4930-ac72-434a-bc1d-e6398dd25f7d",
        "name": "Holly Quinn",
        "email": "ryan37@example.net",
        "address": "Unit 1771 Box 3227\nDPO AE 42897, Philadelphia",
        "join_date": "2023-04-11",
        "location": {
            "type": "Point",
            "coordinates": [
                -75.1652,
                39.9526
            ]
        }
    },
    {
        "user_id": "1d1f5b59-212c-4788-94bd-ac78dd293efd",
        "name": "Randy Franklin",
        "email": "laurenwalton@example.org",
        "address": "PSC 9246, Box 9829\nAPO AE 79482, Albuquerque",
        "join_date": "2023-06-16",
        "location": {
            "type": "Point",
            "coordinates": [
                -106.6504,
                35.0844
            ]
        }
    },
    {
        "user_id": "3645a52d-aae3-4c1b-ad5b-aebb6736ffd2",
        "name": "Beverly Bell",
        "email": "amber00@example.net",
        "address": "USNS Davis\nFPO AE 15678, Columbus",
        "join_date": "2020-09-13",
        "location": {
            "type": "Point",
            "coordinates": [
                -82.9988,
                39.9612
            ]
        }
    },
    {
        "user_id": "7d9e7805-429f-45d3-a3a8-56e11ba47637",
        "name": "Shari Patterson",
        "email": "chelsea99@example.com",
        "address": "0532 Young Curve Suite 238\nNew Elainemouth, AZ 28532, Baltimore",
        "join_date": "2022-11-19",
        "location": {
            "type": "Point",
            "coordinates": [
                -76.6122,
                39.2904
            ]
        }
    },
    {
        "user_id": "799ea20f-d386-462f-9f5b-06293af9bff1",
        "name": "Martha Olson MD",
        "email": "douglasrichard@example.com",
        "address": "63307 Ian Lodge\nLake Matthewfort, MT 05663, Fresno",
        "join_date": "2023-11-13",
        "location": {
            "type": "Point",
            "coordinates": [
                -119.7871,
                36.7378
            ]
        }
    },
    {
        "user_id": "4c1105e8-2ccd-4bdb-b717-51a09ebb8dad",
        "name": "Debra Hall",
        "email": "esparzamatthew@example.org",
        "address": "941 Johnston Street Apt. 063\nSouth Edwardview, TN 49304, Cape Town",
        "join_date": "2021-11-09",
        "location": {
            "type": "Point",
            "coordinates": [
                18.4241,
                -33.9249
            ]
        }
    },
    {
        "user_id": "78188553-e72d-4609-95fc-15006685cdc4",
        "name": "Derek Oliver",
        "email": "pamela79@example.com",
        "address": "36280 Brown Club\nPort Ashleyhaven, DE 17334, Bakersfield",
        "join_date": "2022-12-14",
        "location": {
            "type": "Point",
            "coordinates": [
                -119.0187,
                35.3733
            ]
        }
    },
    {
        "user_id": "c433e725-73f9-4997-9313-aa86eefb07ef",
        "name": "Bridget Humphrey",
        "email": "estesmichael@example.net",
        "address": "550 Anne Tunnel\nWest Kenneth, MN 68219, Denver",
        "join_date": "2023-05-31",
        "location": {
            "type": "Point",
            "coordinates": [
                -104.9903,
                39.7392
            ]
        }
    },
    {
        "user_id": "7814264c-a820-46c8-9938-3ae0dd254e2f",
        "name": "Mark Hart",
        "email": "bpowell@example.net",
        "address": "2153 Chelsea Plaza Suite 028\nLake Jamesland, DE 12244, Wichita",
        "join_date": "2021-06-18",
        "location": {
            "type": "Point",
            "coordinates": [
                -97.3301,
                37.6872
            ]
        }
    },
    {
        "user_id": "3b65dbcd-bce1-4021-861b-ccc154e146c1",
        "name": "Jacob Schultz",
        "email": "colincarter@example.com",
        "address": "6913 Joshua Station\nBautistachester, KY 21943, Denver",
        "join_date": "2023-04-11",
        "location": {
            "type": "Point",
            "coordinates": [
                -104.9903,
                39.7392
            ]
        }
    },
    {
        "user_id": "16fd3c58-c020-423f-9fdd-1daf586eaa48",
        "name": "Matthew Walker",
        "email": "kirk04@example.com",
        "address": "470 Barbara Parkways Apt. 476\nSouth Adriana, DE 77367, Berlin",
        "join_date": "2021-03-25",
        "location": {
            "type": "Point",
            "coordinates": [
                13.405,
                52.52
            ]
        }
    },
    {
        "user_id": "20e94a42-0505-4088-a765-f70f2eb41edc",
        "name": "Marisa Phillips",
        "email": "travis80@example.org",
        "address": "1378 Terrell Fords Suite 122\nSouth Dalton, WA 61176, Tulsa",
        "join_date": "2021-03-31",
        "location": {
            "type": "Point",
            "coordinates": [
                -95.992775,
                36.15398
            ]
        }
    },
    {
        "user_id": "365777c9-039b-422c-8b25-3f7223f0a369",
        "name": "Justin Rodriguez",
        "email": "connorgibson@example.net",
        "address": "6322 Paul Crossroad\nNew Michellestad, WA 98417, Mumbai",
        "join_date": "2023-01-15",
        "location": {
            "type": "Point",
            "coordinates": [
                72.8777,
                19.076
            ]
        }
    },
    {
        "user_id": "85694120-48a4-448f-9924-41a24e02cb8d",
        "name": "Joy Williamson",
        "email": "gcoleman@example.com",
        "address": "17922 Keller Locks\nNew Stephen, VI 91361, San Jose",
        "join_date": "2020-10-12",
        "location": {
            "type": "Point",
            "coordinates": [
                -121.8863,
                37.3382
            ]
        }
    },
    {
        "user_id": "73cf31bb-45ae-4552-90a6-bbb5ba2f6ff8",
        "name": "Pamela Goodman",
        "email": "stephenbrady@example.net",
        "address": "609 Jacob Shores Suite 494\nNew Antonioshire, WV 51084, Boston",
        "join_date": "2023-07-20",
        "location": {
            "type": "Point",
            "coordinates": [
                -71.0589,
                42.3601
            ]
        }
    },
    {
        "user_id": "344ab533-4846-4a65-bb8e-1c4022d63e4c",
        "name": "Harold Knight",
        "email": "rwalls@example.net",
        "address": "8361 Maurice Prairie Apt. 217\nWest Vanessa, MP 29907, Toronto",
        "join_date": "2021-02-01",
        "location": {
            "type": "Point",
            "coordinates": [
                -79.347015,
                43.65107
            ]
        }
    },
    {
        "user_id": "8e722294-2aaf-4d87-bcc3-f2faec193ef0",
        "name": "Dr. Chad Ramos PhD",
        "email": "fguzman@example.com",
        "address": "590 Robin Throughway\nCaseyberg, NE 60735, San Francisco",
        "join_date": "2021-05-12",
        "location": {
            "type": "Point",
            "coordinates": [
                -122.4194,
                37.7749
            ]
        }
    },
    {
        "user_id": "e679d100-623a-478c-b345-6ba238216260",
        "name": "Terry Mcintosh",
        "email": "morrisondaniel@example.org",
        "address": "315 Morris Camp Suite 376\nWest Brandon, NY 47640, New Orleans",
        "join_date": "2023-11-24",
        "location": {
            "type": "Point",
            "coordinates": [
                -90.0715,
                29.9511
            ]
        }
    },
    {
        "user_id": "e367e909-5504-408a-8268-910ba236dc51",
        "name": "Danielle Riley",
        "email": "shawnaschmidt@example.org",
        "address": "73799 Anthony Trafficway Apt. 318\nCamerontown, MS 77011, Seattle",
        "join_date": "2020-09-10",
        "location": {
            "type": "Point",
            "coordinates": [
                -122.3321,
                47.6062
            ]
        }
    },
    {
        "user_id": "2753cb37-9167-4a24-bbb8-99652b4e2031",
        "name": "James Johnson",
        "email": "shannonjohnson@example.com",
        "address": "58815 Jerry Stravenue Suite 612\nBenitezmouth, PA 34911, Cleveland",
        "join_date": "2021-04-27",
        "location": {
            "type": "Point",
            "coordinates": [
                -81.6944,
                41.4993
            ]
        }
    },
    {
        "user_id": "4a4340fe-adf8-46f1-adda-04e152769364",
        "name": "Brandon Collins",
        "email": "shelleyshepherd@example.net",
        "address": "92361 Calderon Lane Suite 169\nEast Anitamouth, AS 55440, Singapore",
        "join_date": "2021-01-21",
        "location": {
            "type": "Point",
            "coordinates": [
                103.8198,
                1.3521
            ]
        }
    },
    {
        "user_id": "a86683ec-62db-42a9-bccd-05226845c32f",
        "name": "Erin Mckee",
        "email": "edward54@example.org",
        "address": "172 Stephens Plain Apt. 859\nWest Robertbury, VA 14722, Milwaukee",
        "join_date": "2021-10-15",
        "location": {
            "type": "Point",
            "coordinates": [
                -87.9065,
                43.0389
            ]
        }
    },
    {
        "user_id": "ba57a6cb-8a34-43bc-891b-9f84f75c930f",
        "name": "Marcus Chavez",
        "email": "ana33@example.org",
        "address": "8363 Sullivan Pine Suite 995\nEast Joseph, DE 53512, Dubai",
        "join_date": "2020-06-05",
        "location": {
            "type": "Point",
            "coordinates": [
                55.296249,
                25.276987
            ]
        }
    },
    {
        "user_id": "a5cb0555-c315-4407-8f5a-83a45051a4b9",
        "name": "Natalie Dixon",
        "email": "kristina94@example.net",
        "address": "079 Michelle Pines\nJillburgh, MA 40771, Tucson",
        "join_date": "2021-01-27",
        "location": {
            "type": "Point",
            "coordinates": [
                -110.9747,
                32.2226
            ]
        }
    },
    {
        "user_id": "75170e85-5e67-4e6d-844f-b42caa6a936a",
        "name": "Wayne Fernandez",
        "email": "trevorhill@example.net",
        "address": "42031 Nicole Squares\nPatrickshire, TX 29215, Riverside",
        "join_date": "2021-09-26",
        "location": {
            "type": "Point",
            "coordinates": [
                -117.3755,
                33.9806
            ]
        }
    },
    {
        "user_id": "26715d8b-6d33-41c4-84c3-d47c6439a3cc",
        "name": "Timothy Jones",
        "email": "linda49@example.org",
        "address": "1472 Benson Corner\nDanielbury, AR 28150, Shanghai",
        "join_date": "2023-11-10",
        "location": {
            "type": "Point",
            "coordinates": [
                121.4737,
                31.2304
            ]
        }
    },
    {
        "user_id": "b0a22437-c104-4cf8-bd08-99a85cc51362",
        "name": "Mikayla Clark",
        "email": "kristen30@example.net",
        "address": "68323 Young Bypass Suite 016\nJamesview, WV 39109, Dubai",
        "join_date": "2020-11-29",
        "location": {
            "type": "Point",
            "coordinates": [
                55.296249,
                25.276987
            ]
        }
    },
    {
        "user_id": "bdea88a7-b030-4b63-be71-442198c1d164",
        "name": "Carlos Warner",
        "email": "lisablanchard@example.com",
        "address": "496 Smith Squares Apt. 852\nErinland, UT 48483, Miami",
        "join_date": "2023-12-05",
        "location": {
            "type": "Point",
            "coordinates": [
                -80.1918,
                25.7617
            ]
        }
    },
    {
        "user_id": "49368448-16f7-4a67-9cf3-d996b59cad5b",
        "name": "Kayla Perez",
        "email": "monica46@example.org",
        "address": "4986 Clark Parkways\nJonesshire, NC 65583, London",
        "join_date": "2020-03-28",
        "location": {
            "type": "Point",
            "coordinates": [
                -0.1278,
                51.5074
            ]
        }
    },
    {
        "user_id": "0d130289-6aae-4ad5-9146-0a60c5f61447",
        "name": "Taylor Washington",
        "email": "efischer@example.net",
        "address": "274 Wise Points Suite 498\nPort Kristen, OR 30898, Boston",
        "join_date": "2021-07-11",
        "location": {
            "type": "Point",
            "coordinates": [
                -71.0589,
                42.3601
            ]
        }
    },
    {
        "user_id": "0a153750-4a56-4c0e-8b89-e9906fd4fcaf",
        "name": "Lisa Walker",
        "email": "aking@example.net",
        "address": "235 Mcknight Village Apt. 376\nAlexandermouth, ND 66333, Riverside",
        "join_date": "2023-06-09",
        "location": {
            "type": "Point",
            "coordinates": [
                -117.3755,
                33.9806
            ]
        }
    },
    {
        "user_id": "c9f977e4-f477-47c3-8a42-85799d1622ae",
        "name": "Mark Watkins",
        "email": "gduran@example.org",
        "address": "40290 Donna Spring\nCharleshaven, AK 79418, San Diego",
        "join_date": "2021-02-28",
        "location": {
            "type": "Point",
            "coordinates": [
                -117.1611,
                32.7157
            ]
        }
    },
    {
        "user_id": "9e738116-55fd-4ada-bd2d-4701fac1fd58",
        "name": "Luis Liu",
        "email": "jeremiah36@example.com",
        "address": "2951 Aaron Common\nNew Hannahtown, LA 54297, Las Vegas",
        "join_date": "2021-09-06",
        "location": {
            "type": "Point",
            "coordinates": [
                -115.1398,
                36.1699
            ]
        }
    },
    {
        "user_id": "64f941a3-b355-4499-a091-a6eea4c4526e",
        "name": "Ashley Johnson MD",
        "email": "zsmith@example.com",
        "address": "78581 Jones Plaza Suite 398\nEast Sharonchester, MD 35923, Washington D.C.",
        "join_date": "2021-06-01",
        "location": {
            "type": "Point",
            "coordinates": [
                -77.0369,
                38.9072
            ]
        }
    },
    {
        "user_id": "a1296357-9261-4510-aeed-d4f7c1a868fa",
        "name": "Andrew Hill PhD",
        "email": "josephshields@example.org",
        "address": "586 Anthony Mountains Suite 899\nPort Prestonview, NC 64059, Raleigh",
        "join_date": "2021-05-18",
        "location": {
            "type": "Point",
            "coordinates": [
                -78.6382,
                35.7796
            ]
        }
    },
    {
        "user_id": "9af0c49a-ce09-4aa4-8056-a3cc930717c2",
        "name": "Jennifer King",
        "email": "drodriguez@example.net",
        "address": "20539 Hicks Canyon Apt. 998\nFosterborough, NV 53073, San Antonio",
        "join_date": "2020-11-03",
        "location": {
            "type": "Point",
            "coordinates": [
                -98.4936,
                29.4241
            ]
        }
    },
    {
        "user_id": "675ec2c6-3801-44b8-9a95-67c7581d23a1",
        "name": "James Guzman",
        "email": "khoward@example.org",
        "address": "440 Cowan Tunnel Suite 989\nLake Michelle, AK 60841, Bangkok",
        "join_date": "2020-07-16",
        "location": {
            "type": "Point",
            "coordinates": [
                100.5018,
                13.7563
            ]
        }
    },
    {
        "user_id": "0afa1083-2d65-4fe5-b79d-d68ffe06251c",
        "name": "Kim Ramirez",
        "email": "powersbrandon@example.org",
        "address": "45793 Denise Villages Suite 641\nLake Sylviastad, ID 70996, Tucson",
        "join_date": "2020-12-20",
        "location": {
            "type": "Point",
            "coordinates": [
                -110.9747,
                32.2226
            ]
        }
    },
    {
        "user_id": "6c7547ab-a9bd-48e2-9572-f166f111e71c",
        "name": "Aaron Riley",
        "email": "orteganicole@example.org",
        "address": "68836 Garcia Points\nWest Jeffrey, VA 73283, El Paso",
        "join_date": "2023-08-05",
        "location": {
            "type": "Point",
            "coordinates": [
                -106.485,
                31.7619
            ]
        }
    },
    {
        "user_id": "73114943-f3ed-4db7-9365-4334ff399e70",
        "name": "Wendy Allen",
        "email": "brookehoward@example.org",
        "address": "9041 Wagner Cliff Suite 094\nSouth Mary, GU 08824, Singapore",
        "join_date": "2020-10-20",
        "location": {
            "type": "Point",
            "coordinates": [
                103.8198,
                1.3521
            ]
        }
    },
    {
        "user_id": "41974954-ae85-4a2e-b3b2-f0dd6df0f8d3",
        "name": "Kelly Carter",
        "email": "jenniferjuarez@example.net",
        "address": "573 Castillo Isle\nEast Monica, ID 69845, Mumbai",
        "join_date": "2022-06-01",
        "location": {
            "type": "Point",
            "coordinates": [
                72.8777,
                19.076
            ]
        }
    },
    {
        "user_id": "42eb8d70-8fa9-4fea-bb82-54b55822bdf6",
        "name": "Adam Collins",
        "email": "hammondjohn@example.net",
        "address": "86586 Tara Forges Suite 376\nNorth Judybury, IA 90392, Shanghai",
        "join_date": "2022-10-14",
        "location": {
            "type": "Point",
            "coordinates": [
                121.4737,
                31.2304
            ]
        }
    },
    {
        "user_id": "1acf94ba-a2a6-421c-90a4-ac81a9629df6",
        "name": "Sandra Thompson",
        "email": "deborah49@example.com",
        "address": "831 Emily Cliffs\nMaryton, CT 29428, San Antonio",
        "join_date": "2022-08-05",
        "location": {
            "type": "Point",
            "coordinates": [
                -98.4936,
                29.4241
            ]
        }
    },
    {
        "user_id": "fd4d90da-8302-4617-a8c5-a2200aa82511",
        "name": "Ronnie Myers",
        "email": "icarlson@example.org",
        "address": "Unit 0846 Box 6170\nDPO AP 64143, Detroit",
        "join_date": "2020-10-04",
        "location": {
            "type": "Point",
            "coordinates": [
                -83.0458,
                42.3314
            ]
        }
    },
    {
        "user_id": "b332b667-87aa-4940-8b9d-dee42931d711",
        "name": "Tara Keller",
        "email": "joycejerry@example.org",
        "address": "849 Melissa Dale Apt. 055\nPort Harryside, AR 69260, Las Vegas",
        "join_date": "2020-02-09",
        "location": {
            "type": "Point",
            "coordinates": [
                -115.1398,
                36.1699
            ]
        }
    },
    {
        "user_id": "6fda1744-908e-41d2-88f0-2d3cb2cc046e",
        "name": "Jennifer Rodriguez",
        "email": "nguyenjaime@example.com",
        "address": "991 Kimberly Unions Suite 114\nHarrisstad, AK 54223, San Antonio",
        "join_date": "2021-10-07",
        "location": {
            "type": "Point",
            "coordinates": [
                -98.4936,
                29.4241
            ]
        }
    },
    {
        "user_id": "22d15537-238b-4764-9958-12e473794755",
        "name": "Mr. Joseph Farley Jr.",
        "email": "lukerobinson@example.net",
        "address": "USNV Sutton\nFPO AA 75417, Santa Ana",
        "join_date": "2022-05-02",
        "location": {
            "type": "Point",
            "coordinates": [
                -117.8677,
                33.7455
            ]
        }
    },
    {
        "user_id": "37543635-80fb-4aa2-9648-35897ef562d0",
        "name": "Joshua Boyd",
        "email": "ann61@example.net",
        "address": "USS Miles\nFPO AP 22881, Tulsa",
        "join_date": "2022-06-26",
        "location": {
            "type": "Point",
            "coordinates": [
                -95.992775,
                36.15398
            ]
        }
    },
    {
        "user_id": "7a9c9610-5a36-4dba-8686-c18e7cb0d512",
        "name": "Benjamin Lopez",
        "email": "kristen01@example.com",
        "address": "233 David Rapids\nBrookeville, MO 90211, Tulsa",
        "join_date": "2020-06-17",
        "location": {
            "type": "Point",
            "coordinates": [
                -95.992775,
                36.15398
            ]
        }
    },
    {
        "user_id": "90e32af3-e349-41ba-b124-362d34846b57",
        "name": "Phillip Wright",
        "email": "aaron83@example.net",
        "address": "89589 Banks Land\nWestport, MT 29971, Tucson",
        "join_date": "2020-10-18",
        "location": {
            "type": "Point",
            "coordinates": [
                -110.9747,
                32.2226
            ]
        }
    },
    {
        "user_id": "f525de39-c2f6-4548-91ba-0fac912cda0a",
        "name": "Brandon Lee",
        "email": "nancy60@example.org",
        "address": "152 Cynthia Islands Apt. 108\nBrownborough, LA 83044, Sacramento",
        "join_date": "2021-12-12",
        "location": {
            "type": "Point",
            "coordinates": [
                -121.4944,
                38.5816
            ]
        }
    },
    {
        "user_id": "f688b757-33a1-4f53-8729-ec6383badb0e",
        "name": "Adam Moore",
        "email": "cherylgreen@example.org",
        "address": "USCGC Estrada\nFPO AP 64183, Philadelphia",
        "join_date": "2021-05-04",
        "location": {
            "type": "Point",
            "coordinates": [
                -75.1652,
                39.9526
            ]
        }
    },
    {
        "user_id": "d5295dfb-845a-475b-a09b-c128439368d5",
        "name": "Veronica Bailey",
        "email": "alexanderemily@example.net",
        "address": "USNV Simpson\nFPO AA 28618, Bangkok",
        "join_date": "2020-06-22",
        "location": {
            "type": "Point",
            "coordinates": [
                100.5018,
                13.7563
            ]
        }
    },
    {
        "user_id": "ee081580-bf6e-4aa3-96ad-90f618d0300d",
        "name": "Cody Thomas",
        "email": "romerojavier@example.net",
        "address": "9446 Collin Field\nLake Jamesberg, UT 25492, Santa Ana",
        "join_date": "2021-10-05",
        "location": {
            "type": "Point",
            "coordinates": [
                -117.8677,
                33.7455
            ]
        }
    },
    {
        "user_id": "e00f496c-4f29-4728-ab25-7c173b9e3d7f",
        "name": "Linda Washington",
        "email": "ysantiago@example.net",
        "address": "85064 Martin Causeway\nNew Donnafort, AK 03761, Singapore",
        "join_date": "2021-02-01",
        "location": {
            "type": "Point",
            "coordinates": [
                103.8198,
                1.3521
            ]
        }
    },
    {
        "user_id": "4620e7d8-7349-4e3f-989d-e305945106b2",
        "name": "Joel Castro",
        "email": "melissacallahan@example.com",
        "address": "PSC 4403, Box 9821\nAPO AE 68387, Nashville",
        "join_date": "2020-08-27",
        "location": {
            "type": "Point",
            "coordinates": [
                -86.7816,
                36.1627
            ]
        }
    },
    {
        "user_id": "43871fae-c20c-4e6b-9803-e9cd1c14548a",
        "name": "Michael Turner",
        "email": "cassidy27@example.net",
        "address": "996 Lisa Dam Suite 920\nTerrystad, MN 74174, Charlotte",
        "join_date": "2020-04-14",
        "location": {
            "type": "Point",
            "coordinates": [
                -80.8431,
                35.2271
            ]
        }
    },
    {
        "user_id": "56747b3f-cdb2-453a-857b-41fa12c8dfce",
        "name": "John Cortez",
        "email": "xwatson@example.com",
        "address": "683 Collins Way\nJohnsonburgh, KY 01902, Cape Town",
        "join_date": "2022-11-23",
        "location": {
            "type": "Point",
            "coordinates": [
                18.4241,
                -33.9249
            ]
        }
    },
    {
        "user_id": "8b5aa6ba-5166-4e09-a88f-c7cd45be0309",
        "name": "Cassandra Mcclure",
        "email": "briana42@example.org",
        "address": "834 Nicholas Parks Suite 254\nEast Devinburgh, NV 39511, Philadelphia",
        "join_date": "2022-01-19",
        "location": {
            "type": "Point",
            "coordinates": [
                -75.1652,
                39.9526
            ]
        }
    },
    {
        "user_id": "a05808ae-3636-4e2d-b87b-20dcc0c48c2a",
        "name": "Shawn Graves",
        "email": "elizabethmartin@example.com",
        "address": "6922 Moore Cliffs Apt. 023\nLake Maryfort, OH 80287, New Orleans",
        "join_date": "2023-12-05",
        "location": {
            "type": "Point",
            "coordinates": [
                -90.0715,
                29.9511
            ]
        }
    },
    {
        "user_id": "70ecf6fe-3a90-41ec-865d-2c57bb14dd8c",
        "name": "Holly Powell",
        "email": "christinecampbell@example.com",
        "address": "55212 Bradshaw Circles Apt. 163\nKimberlymouth, AZ 94357, Paris",
        "join_date": "2020-05-03",
        "location": {
            "type": "Point",
            "coordinates": [
                2.3522,
                48.8566
            ]
        }
    },
    {
        "user_id": "669d3b5e-060b-4574-931c-5c8d841a7082",
        "name": "Nicole Roman",
        "email": "jarnold@example.com",
        "address": "99648 Timothy Trail Suite 708\nEast Amber, AZ 12457, Singapore",
        "join_date": "2020-04-18",
        "location": {
            "type": "Point",
            "coordinates": [
                103.8198,
                1.3521
            ]
        }
    },
    {
        "user_id": "09cf7d4e-8586-4c63-a60d-b184bd4fabb6",
        "name": "Carolyn Velasquez",
        "email": "cory84@example.org",
        "address": "432 Perez Harbor\nEast Reneeburgh, AK 66937, Rio de Janeiro",
        "join_date": "2022-04-06",
        "location": {
            "type": "Point",
            "coordinates": [
                -43.1729,
                -22.9068
            ]
        }
    },
    {
        "user_id": "3f840963-6a47-41b4-8108-ced353621008",
        "name": "Christine Garcia",
        "email": "walkerkatrina@example.com",
        "address": "878 Jacob Manors Suite 252\nLake Markview, HI 80830, Berlin",
        "join_date": "2023-06-19",
        "location": {
            "type": "Point",
            "coordinates": [
                13.405,
                52.52
            ]
        }
    },
    {
        "user_id": "a189a2aa-6d87-4d05-b27e-8bcebb2123d1",
        "name": "Louis Bartlett",
        "email": "mary33@example.org",
        "address": "3850 Mary Squares\nTamibury, NM 64820, Sydney",
        "join_date": "2020-08-31",
        "location": {
            "type": "Point",
            "coordinates": [
                151.2093,
                -33.8688
            ]
        }
    },
    {
        "user_id": "74fab920-2533-4643-8bdb-4ed097ff25a5",
        "name": "William Browning",
        "email": "hlewis@example.org",
        "address": "62596 Brenda Manor\nCoxfort, TN 37619, Honolulu",
        "join_date": "2022-12-01",
        "location": {
            "type": "Point",
            "coordinates": [
                -157.8583,
                21.3069
            ]
        }
    },
    {
        "user_id": "f8feafd7-693c-4f99-8109-0ad9b4f4b7b1",
        "name": "Amy Hughes",
        "email": "david62@example.com",
        "address": "180 Walker Union Apt. 807\nSouth Lindaland, NH 84797, Omaha",
        "join_date": "2020-01-16",
        "location": {
            "type": "Point",
            "coordinates": [
                -95.9345,
                41.2565
            ]
        }
    },
    {
        "user_id": "b04b28e4-8284-44fd-bb7c-0cd45c696144",
        "name": "Joshua Gregory",
        "email": "ericahansen@example.com",
        "address": "3368 Donna Brook Apt. 223\nNorth William, ME 32343, Jacksonville",
        "join_date": "2023-10-28",
        "location": {
            "type": "Point",
            "coordinates": [
                -81.6557,
                30.3322
            ]
        }
    },
    {
        "user_id": "1bdc30af-11b4-47c3-8293-e961d3fe7368",
        "name": "Natasha Hall",
        "email": "phamamy@example.org",
        "address": "7833 Leonard Terrace Suite 900\nDudleyshire, MO 58350, Virginia Beach",
        "join_date": "2020-01-03",
        "location": {
            "type": "Point",
            "coordinates": [
                -75.978,
                36.8529
            ]
        }
    },
    {
        "user_id": "7c855e6a-585e-4efd-b470-6dc9b2b26c1a",
        "name": "Courtney Spencer",
        "email": "sanchezdalton@example.org",
        "address": "099 Adams Canyon Apt. 816\nLake Ashley, WI 22769, Shanghai",
        "join_date": "2021-09-23",
        "location": {
            "type": "Point",
            "coordinates": [
                121.4737,
                31.2304
            ]
        }
    },
    {
        "user_id": "e7b9fea6-88df-470e-a9a1-d07e915c827e",
        "name": "Christopher Morris",
        "email": "garciadiane@example.org",
        "address": "067 Gomez Court Suite 384\nNew Jenniferborough, OK 66713, Las Vegas",
        "join_date": "2022-04-07",
        "location": {
            "type": "Point",
            "coordinates": [
                -115.1398,
                36.1699
            ]
        }
    },
    {
        "user_id": "60b5bbed-6a02-46d5-955e-ddd38479e49f",
        "name": "Danny Wilkins",
        "email": "longmichael@example.net",
        "address": "26483 White Street Apt. 961\nWest Joseph, CA 86422, Portland",
        "join_date": "2022-03-19",
        "location": {
            "type": "Point",
            "coordinates": [
                -122.675,
                45.5051
            ]
        }
    },
    {
        "user_id": "ef9340bd-1c1b-44a8-bc45-e05980a1f3b8",
        "name": "Marilyn Decker",
        "email": "ginacrawford@example.net",
        "address": "79467 Michael Inlet Suite 580\nNew Ronaldmouth, KY 15346, Anaheim",
        "join_date": "2023-11-05",
        "location": {
            "type": "Point",
            "coordinates": [
                -117.9143,
                33.8366
            ]
        }
    },
    {
        "user_id": "917a4671-0213-4841-a97b-cba71c4cf6c6",
        "name": "Carlos Fleming",
        "email": "jamesbrewer@example.net",
        "address": "51132 Tara Squares Suite 291\nWest Kevinbury, CO 52754, Sydney",
        "join_date": "2023-03-25",
        "location": {
            "type": "Point",
            "coordinates": [
                151.2093,
                -33.8688
            ]
        }
    },
    {
        "user_id": "d2cd5d53-aedc-4921-81fe-e36cb30ccae7",
        "name": "Wesley Cole",
        "email": "randy07@example.org",
        "address": "327 Crystal Isle\nButlerview, PA 72154, Honolulu",
        "join_date": "2023-04-07",
        "location": {
            "type": "Point",
            "coordinates": [
                -157.8583,
                21.3069
            ]
        }
    },
    {
        "user_id": "f15a5e62-71da-4e91-b61a-af10cd4674fb",
        "name": "Amanda Munoz",
        "email": "tonyskinner@example.com",
        "address": "528 Stewart Mews\nHunterville, GA 37162, Honolulu",
        "join_date": "2021-06-25",
        "location": {
            "type": "Point",
            "coordinates": [
                -157.8583,
                21.3069
            ]
        }
    },
    {
        "user_id": "15aeb3db-78ec-4858-9565-27e44a1cd2ef",
        "name": "Jamie Clark",
        "email": "evansjerry@example.com",
        "address": "617 Gilbert Parkway Suite 436\nPort Jacquelineshire, IN 49383, Phoenix",
        "join_date": "2022-06-02",
        "location": {
            "type": "Point",
            "coordinates": [
                -112.074,
                33.4484
            ]
        }
    },
    {
        "user_id": "1b5966d9-0bbf-4657-9459-ad08df15a648",
        "name": "Kevin Steele",
        "email": "johnsonricardo@example.net",
        "address": "2236 Amber Dam\nLake Michael, WI 73264, Philadelphia",
        "join_date": "2020-02-10",
        "location": {
            "type": "Point",
            "coordinates": [
                -75.1652,
                39.9526
            ]
        }
    },
    {
        "user_id": "4d3a2962-88b4-4bba-b510-14e8619d2d00",
        "name": "Oscar Ross",
        "email": "mccoycharles@example.org",
        "address": "099 Scott Circle Suite 547\nBradyside, PA 39956, London",
        "join_date": "2020-06-30",
        "location": {
            "type": "Point",
            "coordinates": [
                -0.1278,
                51.5074
            ]
        }
    },
    {
        "user_id": "babdaeba-b657-4a1e-9ab0-4359470192e4",
        "name": "Melissa Hoffman MD",
        "email": "vlopez@example.net",
        "address": "54747 Kim Meadow\nPowellshire, AZ 21709, Portland",
        "join_date": "2021-07-22",
        "location": {
            "type": "Point",
            "coordinates": [
                -122.675,
                45.5051
            ]
        }
    },
    {
        "user_id": "af62a101-b16e-492b-9529-294976b2dccd",
        "name": "Jackie Ford",
        "email": "daniel83@example.com",
        "address": "4101 Williams Drive Suite 628\nNorth Jonathan, IL 76091, Miami",
        "join_date": "2023-12-23",
        "location": {
            "type": "Point",
            "coordinates": [
                -80.1918,
                25.7617
            ]
        }
    },
    {
        "user_id": "3929c5c0-ba2b-4112-aa3f-6f92fe2df9e9",
        "name": "Suzanne Rodriguez",
        "email": "sadams@example.com",
        "address": "2250 Vega Road\nPort Amy, WV 71143, Columbus",
        "join_date": "2021-08-29",
        "location": {
            "type": "Point",
            "coordinates": [
                -82.9988,
                39.9612
            ]
        }
    },
    {
        "user_id": "e73ff1ae-f219-4a3e-b345-5df77ee8abcc",
        "name": "Ryan Hebert",
        "email": "fevans@example.com",
        "address": "324 Mitchell Garden\nSouth Diana, WA 80580, San Francisco",
        "join_date": "2020-03-09",
        "location": {
            "type": "Point",
            "coordinates": [
                -122.4194,
                37.7749
            ]
        }
    },
    {
        "user_id": "94297f23-75ab-41fd-a502-97d5ab5a3974",
        "name": "Anna Waller",
        "email": "melissa67@example.com",
        "address": "4296 Marquez Mission\nJoneschester, UT 18620, Tulsa",
        "join_date": "2021-05-21",
        "location": {
            "type": "Point",
            "coordinates": [
                -95.992775,
                36.15398
            ]
        }
    },
    {
        "user_id": "313e7cc6-2905-4862-8954-d8c5acbe52ea",
        "name": "Richard Sloan",
        "email": "mahoneydavid@example.org",
        "address": "984 Larry Greens Suite 404\nNew Stephanie, MA 34191, Oklahoma City",
        "join_date": "2020-05-12",
        "location": {
            "type": "Point",
            "coordinates": [
                -97.5164,
                35.4676
            ]
        }
    },
    {
        "user_id": "41222331-dbed-4db5-b940-5557e7fbf0d5",
        "name": "Nichole Murphy",
        "email": "orogers@example.net",
        "address": "16903 White Prairie\nBrianaburgh, OH 58749, Berlin",
        "join_date": "2021-06-13",
        "location": {
            "type": "Point",
            "coordinates": [
                13.405,
                52.52
            ]
        }
    },
    {
        "user_id": "b1961ebe-600c-4959-b2d7-6482baec8120",
        "name": "Victoria Davis",
        "email": "gibsonamy@example.com",
        "address": "9687 Jacqueline Views Apt. 248\nLake Bethtown, AS 62315, Phoenix",
        "join_date": "2021-11-19",
        "location": {
            "type": "Point",
            "coordinates": [
                -112.074,
                33.4484
            ]
        }
    },
    {
        "user_id": "354da5e9-8626-4d70-9a54-a9a7ca8e7a49",
        "name": "Amy Hall",
        "email": "xreed@example.org",
        "address": "8873 Perkins Lake\nWest Kenneth, SC 36025, Baltimore",
        "join_date": "2022-02-04",
        "location": {
            "type": "Point",
            "coordinates": [
                -76.6122,
                39.2904
            ]
        }
    },
    {
        "user_id": "a1ab9b99-3d38-43f0-adb5-7c0e38a7dc5e",
        "name": "Jason Wood",
        "email": "mary35@example.net",
        "address": "208 Rodriguez Roads Apt. 985\nPort Kevin, TN 13420, Oakland",
        "join_date": "2021-09-24",
        "location": {
            "type": "Point",
            "coordinates": [
                -122.2712,
                37.8044
            ]
        }
    },
    {
        "user_id": "48d7a12d-8838-4bd5-ab9e-b542783307dc",
        "name": "Gerald Duffy",
        "email": "ymckinney@example.net",
        "address": "14074 Michael Lane Apt. 385\nLake Edward, UT 38178, Riverside",
        "join_date": "2023-11-28",
        "location": {
            "type": "Point",
            "coordinates": [
                -117.3755,
                33.9806
            ]
        }
    },
    {
        "user_id": "b4a44a81-752f-42eb-b561-d1a86e6fa800",
        "name": "Jennifer Delgado",
        "email": "doylewilliam@example.org",
        "address": "362 Stephenson Bridge\nJohnland, FL 04639, Chicago",
        "join_date": "2020-10-05",
        "location": {
            "type": "Point",
            "coordinates": [
                -87.6298,
                41.8781
            ]
        }
    },
    {
        "user_id": "b0db9bbb-7ee7-4874-92a2-df31b55eabb2",
        "name": "Amanda Jensen",
        "email": "kimberlysherman@example.net",
        "address": "296 Sharp Course\nJeffreyside, CO 18270, Honolulu",
        "join_date": "2023-08-25",
        "location": {
            "type": "Point",
            "coordinates": [
                -157.8583,
                21.3069
            ]
        }
    },
    {
        "user_id": "fb585eac-3ab5-4ba8-af65-eec97bdd8a11",
        "name": "Amanda Silva",
        "email": "newmancaroline@example.org",
        "address": "1484 Sarah Path\nRobertville, IN 86418, Sacramento",
        "join_date": "2021-06-30",
        "location": {
            "type": "Point",
            "coordinates": [
                -121.4944,
                38.5816
            ]
        }
    },
    {
        "user_id": "a8ebbff9-54e1-4567-b87a-b500f70fe82d",
        "name": "Duane Hall",
        "email": "nancy13@example.org",
        "address": "365 Laura Street Apt. 587\nSouth Madison, MO 18555, Rio de Janeiro",
        "join_date": "2022-08-08",
        "location": {
            "type": "Point",
            "coordinates": [
                -43.1729,
                -22.9068
            ]
        }
    },
    {
        "user_id": "6804ee17-5a22-458a-9a36-5f0188565120",
        "name": "Joseph Pope",
        "email": "hillgregg@example.com",
        "address": "835 Stone Orchard\nSouth Matthew, SC 00618, Mumbai",
        "join_date": "2022-05-18",
        "location": {
            "type": "Point",
            "coordinates": [
                72.8777,
                19.076
            ]
        }
    },
    {
        "user_id": "e4335bc3-fe0f-4912-9838-8564e591c2bc",
        "name": "John Gonzalez",
        "email": "sharon48@example.net",
        "address": "86624 Williams Inlet\nPort Michaela, LA 25959, Dallas",
        "join_date": "2022-02-26",
        "location": {
            "type": "Point",
            "coordinates": [
                -96.797,
                32.7767
            ]
        }
    },
    {
        "user_id": "20363e09-4922-44d1-b834-92cbe457587f",
        "name": "Sandra Craig",
        "email": "tylerpamela@example.org",
        "address": "33933 Andrea Light Suite 530\nSouth Alyssa, MI 22807, Seattle",
        "join_date": "2020-04-16",
        "location": {
            "type": "Point",
            "coordinates": [
                -122.3321,
                47.6062
            ]
        }
    },
    {
        "user_id": "1557b979-8da9-43ab-9263-ba2c7467ab87",
        "name": "Kelsey Taylor",
        "email": "carolynrojas@example.org",
        "address": "USNV Bass\nFPO AE 25363, Shanghai",
        "join_date": "2023-06-12",
        "location": {
            "type": "Point",
            "coordinates": [
                121.4737,
                31.2304
            ]
        }
    },
    {
        "user_id": "886d6e6f-01bd-4658-b66b-7432ae2c498d",
        "name": "Sara Johnson",
        "email": "sampsonjoseph@example.com",
        "address": "284 Hamilton Glen Apt. 472\nWest Dustinbury, WI 19203, Seattle",
        "join_date": "2023-07-22",
        "location": {
            "type": "Point",
            "coordinates": [
                -122.3321,
                47.6062
            ]
        }
    },
    {
        "user_id": "35fcda6f-2017-4a26-a681-36d3ea25408b",
        "name": "Shane Murphy",
        "email": "ujackson@example.org",
        "address": "536 Chapman Summit\nNew Shellychester, VT 05961, Austin",
        "join_date": "2020-03-22",
        "location": {
            "type": "Point",
            "coordinates": [
                -97.7431,
                30.2672
            ]
        }
    },
    {
        "user_id": "46525640-0bf1-4754-b1fc-532dd12b6f3c",
        "name": "Eric Porter",
        "email": "delacruzevan@example.net",
        "address": "8836 Holly Crescent Suite 451\nWest Sophia, MS 25961, Oklahoma City",
        "join_date": "2021-02-24",
        "location": {
            "type": "Point",
            "coordinates": [
                -97.5164,
                35.4676
            ]
        }
    },
    {
        "user_id": "8bba0c25-baf6-4bd7-8ea6-663c6fd53f83",
        "name": "Gabrielle Curtis",
        "email": "ojensen@example.org",
        "address": "14372 Quinn Club\nJoseville, OR 73514, Shanghai",
        "join_date": "2021-05-20",
        "location": {
            "type": "Point",
            "coordinates": [
                121.4737,
                31.2304
            ]
        }
    },
    {
        "user_id": "be98aee2-f39e-49db-ab14-1c1b7955387b",
        "name": "Joe Lewis",
        "email": "johnsontara@example.com",
        "address": "27448 Amy Coves\nNew Adam, MD 66794, Mumbai",
        "join_date": "2021-03-30",
        "location": {
            "type": "Point",
            "coordinates": [
                72.8777,
                19.076
            ]
        }
    },
    {
        "user_id": "4c916620-7a10-4d8b-9957-4eceb8d429fa",
        "name": "Tina Huff",
        "email": "leechristina@example.com",
        "address": "7666 Cain Drive Apt. 021\nBondshire, MA 71262, Bakersfield",
        "join_date": "2023-04-02",
        "location": {
            "type": "Point",
            "coordinates": [
                -119.0187,
                35.3733
            ]
        }
    },
    {
        "user_id": "96ef52a0-2115-4939-b8fc-def9119fd1be",
        "name": "Jonathan Walton",
        "email": "eward@example.com",
        "address": "54060 Cooper Inlet\nKennethmouth, IN 82650, Bakersfield",
        "join_date": "2021-11-01",
        "location": {
            "type": "Point",
            "coordinates": [
                -119.0187,
                35.3733
            ]
        }
    },
    {
        "user_id": "0760b81d-04dd-4891-b226-c56d95ef9e2c",
        "name": "Jonathan Thomas",
        "email": "padillabrittany@example.net",
        "address": "14744 Jeremy Rapid\nPort Nicholasborough, VI 71201, Seattle",
        "join_date": "2020-02-09",
        "location": {
            "type": "Point",
            "coordinates": [
                -122.3321,
                47.6062
            ]
        }
    },
    {
        "user_id": "d1eda497-8038-47f3-a0a5-9e634cdac921",
        "name": "Andrew Wallace",
        "email": "chelseyhines@example.net",
        "address": "111 Justin Canyon\nWest Amanda, VI 61529, Denver",
        "join_date": "2023-07-22",
        "location": {
            "type": "Point",
            "coordinates": [
                -104.9903,
                39.7392
            ]
        }
    },
    {
        "user_id": "00e9d651-c006-4b4f-9f8d-4348bb4c7be0",
        "name": "Angela Turner DDS",
        "email": "ryanwatson@example.com",
        "address": "304 Barr Dam Apt. 257\nNorth Timothy, NE 33663, Portland",
        "join_date": "2020-09-06",
        "location": {
            "type": "Point",
            "coordinates": [
                -122.675,
                45.5051
            ]
        }
    },
    {
        "user_id": "258ba8a7-d48a-4f3b-93cd-4cdfd94b7651",
        "name": "Madison Robbins",
        "email": "usnyder@example.net",
        "address": "44281 Eric Port\nPort Anthonymouth, NY 89407, New York",
        "join_date": "2022-07-03",
        "location": {
            "type": "Point",
            "coordinates": [
                -74.006,
                40.7128
            ]
        }
    },
    {
        "user_id": "53def00f-2cd3-40ad-88a2-ce889e64c3bc",
        "name": "Amanda Robinson",
        "email": "walkernicholas@example.org",
        "address": "282 David Road Suite 184\nLake Sierrashire, WI 04495, Tucson",
        "join_date": "2023-06-05",
        "location": {
            "type": "Point",
            "coordinates": [
                -110.9747,
                32.2226
            ]
        }
    },
    {
        "user_id": "64a41e0a-fd75-4ea1-b353-5d94458e7d2a",
        "name": "Jeffrey Montgomery",
        "email": "elizabethrobinson@example.org",
        "address": "321 Meyer Crest\nNorth Johntown, NC 38782, Oakland",
        "join_date": "2023-05-03",
        "location": {
            "type": "Point",
            "coordinates": [
                -122.2712,
                37.8044
            ]
        }
    },
    {
        "user_id": "4adcd000-ac18-4934-a989-bd911cb91956",
        "name": "Mr. Mitchell Meyer",
        "email": "jenniferthomas@example.com",
        "address": "PSC 0766, Box 1493\nAPO AA 46038, Sydney",
        "join_date": "2020-11-12",
        "location": {
            "type": "Point",
            "coordinates": [
                151.2093,
                -33.8688
            ]
        }
    },
    {
        "user_id": "d5ab231c-5d7e-45fb-96fe-2e3a195233c6",
        "name": "Cory Frank",
        "email": "lesliejimenez@example.com",
        "address": "222 Ellis Views Apt. 762\nWest Bruce, DE 95180, Johannesburg",
        "join_date": "2020-03-30",
        "location": {
            "type": "Point",
            "coordinates": [
                28.0473,
                -26.2041
            ]
        }
    },
    {
        "user_id": "beb03d32-3e54-4210-a64e-2ae59d697b67",
        "name": "Alisha Parks",
        "email": "harveyrobert@example.com",
        "address": "454 Travis Trail\nNorth Jamesview, MO 66086, Sydney",
        "join_date": "2022-11-09",
        "location": {
            "type": "Point",
            "coordinates": [
                151.2093,
                -33.8688
            ]
        }
    },
    {
        "user_id": "97d9509f-ec35-41e5-a21e-6ee9a35c9f98",
        "name": "Carol Gonzalez",
        "email": "nicholaspatel@example.net",
        "address": "9250 Linda Meadows\nPhelpston, NM 17380, Sacramento",
        "join_date": "2020-07-16",
        "location": {
            "type": "Point",
            "coordinates": [
                -121.4944,
                38.5816
            ]
        }
    },
    {
        "user_id": "4adb2cb2-6d6f-451d-84d9-59b8e2f62f6e",
        "name": "Paula Mccarthy",
        "email": "cpatrick@example.org",
        "address": "PSC 8925, Box 3020\nAPO AA 35108, Mexico City",
        "join_date": "2022-03-12",
        "location": {
            "type": "Point",
            "coordinates": [
                -99.1332,
                19.4326
            ]
        }
    },
    {
        "user_id": "8e170623-53ac-4b40-867f-cfd190e2a284",
        "name": "Jack Farrell",
        "email": "david46@example.net",
        "address": "0652 Daniel Ridge\nLake Aliciafurt, NE 53438, San Antonio",
        "join_date": "2020-05-03",
        "location": {
            "type": "Point",
            "coordinates": [
                -98.4936,
                29.4241
            ]
        }
    },
    {
        "user_id": "dd8c20bc-f334-43c9-bdb9-5e455d125fdd",
        "name": "Karen Bonilla DVM",
        "email": "robinsonshawn@example.org",
        "address": "31219 Carlson Forge Apt. 427\nWest Steven, AL 74806, Denver",
        "join_date": "2022-10-19",
        "location": {
            "type": "Point",
            "coordinates": [
                -104.9903,
                39.7392
            ]
        }
    },
    {
        "user_id": "94afd5e4-470e-4b31-8c53-151647503401",
        "name": "Gabriel Bruce",
        "email": "bholland@example.com",
        "address": "Unit 2025 Box 4488\nDPO AA 88516, Miami",
        "join_date": "2022-01-13",
        "location": {
            "type": "Point",
            "coordinates": [
                -80.1918,
                25.7617
            ]
        }
    },
    {
        "user_id": "9ab4cf2b-ad95-4efb-a63e-87397f61ad11",
        "name": "Brittany Cook",
        "email": "maryrivera@example.org",
        "address": "3397 Katrina Isle Apt. 847\nLake Michaeltown, CA 65211, Toronto",
        "join_date": "2022-01-07",
        "location": {
            "type": "Point",
            "coordinates": [
                -79.347015,
                43.65107
            ]
        }
    },
    {
        "user_id": "2904af6f-2485-4c61-8483-565dc707e4e7",
        "name": "Danny Greene",
        "email": "whitechristopher@example.com",
        "address": "64817 Emily Lakes\nWest Amandabury, MO 72343, Mesa",
        "join_date": "2023-03-25",
        "location": {
            "type": "Point",
            "coordinates": [
                -111.8315,
                33.4152
            ]
        }
    },
    {
        "user_id": "ba87f0af-05f8-4621-a6d9-9237a98713e1",
        "name": "Jessica Gillespie",
        "email": "dhernandez@example.net",
        "address": "USNS Jacobson\nFPO AE 03190, New York",
        "join_date": "2020-07-01",
        "location": {
            "type": "Point",
            "coordinates": [
                -74.006,
                40.7128
            ]
        }
    },
    {
        "user_id": "dc849b0c-9ae8-4716-9c5a-fe980bd5a512",
        "name": "Lisa Hatfield",
        "email": "fpreston@example.com",
        "address": "809 Proctor Locks\nPort Tammy, ND 10196, Arlington",
        "join_date": "2020-12-19",
        "location": {
            "type": "Point",
            "coordinates": [
                -97.1081,
                32.7357
            ]
        }
    },
    {
        "user_id": "994dbe39-2f10-46cb-b104-3eb5f9f89120",
        "name": "Krista Hanna",
        "email": "jamescarolyn@example.org",
        "address": "7125 Joshua River Apt. 682\nDebbiefurt, NC 29990, San Diego",
        "join_date": "2023-11-02",
        "location": {
            "type": "Point",
            "coordinates": [
                -117.1611,
                32.7157
            ]
        }
    },
    {
        "user_id": "384e6f9c-d7b8-4fcc-b978-38caf3fdf05b",
        "name": "Thomas Lewis",
        "email": "stewartmadison@example.com",
        "address": "24913 Nicole Lodge\nJessicaton, OH 52958, Portland",
        "join_date": "2022-08-02",
        "location": {
            "type": "Point",
            "coordinates": [
                -122.675,
                45.5051
            ]
        }
    },
    {
        "user_id": "26d61611-86f9-4315-8f48-248ae9433460",
        "name": "Bryan Martin",
        "email": "jonesnicole@example.com",
        "address": "539 Rowe Estates Suite 799\nSouth Marilynland, WY 64040, El Paso",
        "join_date": "2020-10-11",
        "location": {
            "type": "Point",
            "coordinates": [
                -106.485,
                31.7619
            ]
        }
    },
    {
        "user_id": "1ee512c5-9812-4d83-b7e0-d2c3149be732",
        "name": "Spencer Owens",
        "email": "zmurillo@example.com",
        "address": "051 Rojas Pass Apt. 581\nAnthonyshire, NE 12954, Seattle",
        "join_date": "2020-09-12",
        "location": {
            "type": "Point",
            "coordinates": [
                -122.3321,
                47.6062
            ]
        }
    },
    {
        "user_id": "4e1429d7-d766-424e-8fb1-e7c32f3bdeb6",
        "name": "Amy Juarez",
        "email": "davehernandez@example.net",
        "address": "699 Hanson Motorway\nJameschester, VI 30093, Aurora",
        "join_date": "2023-07-14",
        "location": {
            "type": "Point",
            "coordinates": [
                -104.8319,
                39.7294
            ]
        }
    },
    {
        "user_id": "7d40503b-af22-4f15-86a9-86da9cc606bc",
        "name": "Meghan Vega",
        "email": "natalie66@example.org",
        "address": "65140 Tabitha Harbors Apt. 913\nNew Karen, FL 08881, Hong Kong",
        "join_date": "2021-02-20",
        "location": {
            "type": "Point",
            "coordinates": [
                114.1694,
                22.3193
            ]
        }
    },
    {
        "user_id": "5a8b59e3-50a2-4126-832d-42429439b5ff",
        "name": "Mark York",
        "email": "kirk05@example.net",
        "address": "1289 House Island Apt. 880\nTimothyshire, IA 91146, Oakland",
        "join_date": "2021-01-07",
        "location": {
            "type": "Point",
            "coordinates": [
                -122.2712,
                37.8044
            ]
        }
    },
    {
        "user_id": "ac5dd9ea-0216-40d1-b440-776324bd6be6",
        "name": "Mr. Michael Bryan",
        "email": "william95@example.com",
        "address": "30706 Aaron Ports Suite 930\nAnaview, MH 06549, Rio de Janeiro",
        "join_date": "2021-10-09",
        "location": {
            "type": "Point",
            "coordinates": [
                -43.1729,
                -22.9068
            ]
        }
    },
    {
        "user_id": "63e18f34-cd59-413c-8131-dd9ec83247fa",
        "name": "Dave Weaver",
        "email": "kristen73@example.org",
        "address": "326 Smith Estates\nLake Marymouth, NC 31804, Sacramento",
        "join_date": "2020-05-03",
        "location": {
            "type": "Point",
            "coordinates": [
                -121.4944,
                38.5816
            ]
        }
    },
    {
        "user_id": "18cbe23c-9b6f-4226-a799-3e5d0fdbf81f",
        "name": "Terry Guerra",
        "email": "spencemary@example.org",
        "address": "722 Hays Underpass Apt. 471\nVasquezberg, NM 41050, Sacramento",
        "join_date": "2021-06-17",
        "location": {
            "type": "Point",
            "coordinates": [
                -121.4944,
                38.5816
            ]
        }
    },
    {
        "user_id": "b3ea6058-696e-4f67-b321-f7d44cb67e27",
        "name": "Mary Lewis",
        "email": "andreahughes@example.net",
        "address": "826 Mary Alley Apt. 632\nThomasstad, SC 85594, Milwaukee",
        "join_date": "2020-10-27",
        "location": {
            "type": "Point",
            "coordinates": [
                -87.9065,
                43.0389
            ]
        }
    },
    {
        "user_id": "bd43e059-7a40-42a1-b64e-703145e72ced",
        "name": "James Ortiz",
        "email": "allenheather@example.org",
        "address": "70236 Waters Forest\nMooreberg, MN 01822, Rio de Janeiro",
        "join_date": "2021-12-07",
        "location": {
            "type": "Point",
            "coordinates": [
                -43.1729,
                -22.9068
            ]
        }
    },
    {
        "user_id": "4bc4239f-4cc1-4582-a6d6-41968b669e84",
        "name": "Dylan Evans",
        "email": "owensashley@example.org",
        "address": "152 Hernandez Terrace Apt. 786\nWest Omarburgh, IA 43761, Arlington",
        "join_date": "2021-06-12",
        "location": {
            "type": "Point",
            "coordinates": [
                -97.1081,
                32.7357
            ]
        }
    },
    {
        "user_id": "6cb1666b-e721-4b9f-905b-735147d34bc7",
        "name": "Keith Davis",
        "email": "ijones@example.com",
        "address": "84819 Clark Crossing Apt. 606\nNew Melissa, AZ 16426, Wichita",
        "join_date": "2022-03-04",
        "location": {
            "type": "Point",
            "coordinates": [
                -97.3301,
                37.6872
            ]
        }
    },
    {
        "user_id": "61974d8e-5bd3-4572-953a-50646c16af5f",
        "name": "Anthony Walker",
        "email": "amy59@example.org",
        "address": "769 Reed Greens Suite 003\nPort Kevinbury, NV 02997, Columbus",
        "join_date": "2022-09-27",
        "location": {
            "type": "Point",
            "coordinates": [
                -82.9988,
                39.9612
            ]
        }
    },
    {
        "user_id": "54bceff2-2cba-4fea-9947-89ba05642b28",
        "name": "Joshua Kent",
        "email": "suttonjanet@example.org",
        "address": "8704 Amanda Junction\nEdgarshire, NJ 15764, Tokyo",
        "join_date": "2022-05-24",
        "location": {
            "type": "Point",
            "coordinates": [
                139.6917,
                35.6895
            ]
        }
    },
    {
        "user_id": "5501fb39-84db-445f-a58a-75966f894eb6",
        "name": "Amanda Johnson",
        "email": "pattersonchristopher@example.org",
        "address": "3756 Angela Fields Apt. 933\nNorth Matthewshire, TX 96564, Oklahoma City",
        "join_date": "2021-06-14",
        "location": {
            "type": "Point",
            "coordinates": [
                -97.5164,
                35.4676
            ]
        }
    },
    {
        "user_id": "a7e77935-7be5-41cd-bd04-19ebc827f863",
        "name": "Heather Carroll",
        "email": "jay18@example.com",
        "address": "290 Gomez Center Suite 939\nNew Clinton, WA 62166, Kansas City",
        "join_date": "2020-10-31",
        "location": {
            "type": "Point",
            "coordinates": [
                -94.5786,
                39.0997
            ]
        }
    },
    {
        "user_id": "b9e3895e-20d7-469e-8387-2d26b1a263e2",
        "name": "Melanie Hernandez",
        "email": "wedwards@example.com",
        "address": "7018 Lane Squares\nLake Lauren, VA 76057, Tokyo",
        "join_date": "2020-09-06",
        "location": {
            "type": "Point",
            "coordinates": [
                139.6917,
                35.6895
            ]
        }
    },
    {
        "user_id": "5df3a618-1ebe-4319-a561-6ed6bf6c090a",
        "name": "Andrew Torres",
        "email": "schultzcraig@example.net",
        "address": "PSC 6831, Box 8128\nAPO AP 30438, Shanghai",
        "join_date": "2020-12-16",
        "location": {
            "type": "Point",
            "coordinates": [
                121.4737,
                31.2304
            ]
        }
    },
    {
        "user_id": "c8839d8d-7b7a-4126-8c4e-0aa55293cfd5",
        "name": "Martha Short",
        "email": "juanfrancis@example.org",
        "address": "33534 Cruz View\nKennethberg, NV 70928, Minneapolis",
        "join_date": "2021-04-16",
        "location": {
            "type": "Point",
            "coordinates": [
                -93.265,
                44.9778
            ]
        }
    },
    {
        "user_id": "91dcbf4b-3045-4817-b18e-939ae9381f3a",
        "name": "Daniel Tyler",
        "email": "ethomas@example.net",
        "address": "0273 Michael Streets\nTeresamouth, WY 05805, Jacksonville",
        "join_date": "2023-07-14",
        "location": {
            "type": "Point",
            "coordinates": [
                -81.6557,
                30.3322
            ]
        }
    },
    {
        "user_id": "4b2408f6-4b2d-488c-9865-ee5f9219b6c5",
        "name": "Jennifer Martin",
        "email": "monicafranklin@example.org",
        "address": "2966 King Mountains\nLake Lindseyhaven, VI 94475, El Paso",
        "join_date": "2020-01-11",
        "location": {
            "type": "Point",
            "coordinates": [
                -106.485,
                31.7619
            ]
        }
    },
    {
        "user_id": "f8eedfe6-3dff-41dd-9383-8119d0d853a3",
        "name": "Jonathon Clements",
        "email": "espinozajoanna@example.net",
        "address": "4355 Miller Landing Apt. 801\nEast Sarafurt, CT 32678, Los Angeles",
        "join_date": "2022-07-28",
        "location": {
            "type": "Point",
            "coordinates": [
                -118.2437,
                34.0522
            ]
        }
    },
    {
        "user_id": "98dfa490-637b-43cb-9a14-7106a612849b",
        "name": "Deborah Lawson",
        "email": "janetlarson@example.com",
        "address": "USNS Burke\nFPO AA 94472, Cape Town",
        "join_date": "2022-01-27",
        "location": {
            "type": "Point",
            "coordinates": [
                18.4241,
                -33.9249
            ]
        }
    },
    {
        "user_id": "238ad915-fc95-44b6-9f52-54b09217d5b0",
        "name": "Christopher Jones",
        "email": "jeremiahhamilton@example.org",
        "address": "81339 Hill Island Suite 364\nOsborneport, AR 88024, Johannesburg",
        "join_date": "2022-12-20",
        "location": {
            "type": "Point",
            "coordinates": [
                28.0473,
                -26.2041
            ]
        }
    },
    {
        "user_id": "43a5a3b1-34d3-4afa-a23f-0e8c34d5c9b4",
        "name": "Steven Cook",
        "email": "pstevens@example.org",
        "address": "4886 William Roads\nKellychester, ME 20744, New Orleans",
        "join_date": "2023-12-09",
        "location": {
            "type": "Point",
            "coordinates": [
                -90.0715,
                29.9511
            ]
        }
    },
    {
        "user_id": "41fe27cf-0773-4efb-9f31-658c8278470f",
        "name": "Andrew Thomas",
        "email": "martinsmith@example.net",
        "address": "26317 Derrick Bridge Suite 422\nLiuport, AK 23195, San Diego",
        "join_date": "2023-04-19",
        "location": {
            "type": "Point",
            "coordinates": [
                -117.1611,
                32.7157
            ]
        }
    },
    {
        "user_id": "42f27ff4-d6fa-43f2-9986-52ef8f1d7856",
        "name": "Miranda Leonard",
        "email": "richard97@example.com",
        "address": "2002 Phillip Unions\nLynchview, TN 15650, Cleveland",
        "join_date": "2021-01-13",
        "location": {
            "type": "Point",
            "coordinates": [
                -81.6944,
                41.4993
            ]
        }
    },
    {
        "user_id": "8518a9c0-a3a4-4432-8137-0da0015a13d3",
        "name": "Lisa Haas",
        "email": "twaters@example.org",
        "address": "83446 Kenneth Branch Apt. 632\nEast Jennifer, LA 50266, Phoenix",
        "join_date": "2023-03-13",
        "location": {
            "type": "Point",
            "coordinates": [
                -112.074,
                33.4484
            ]
        }
    },
    {
        "user_id": "e0529109-eb9b-4f74-8cd4-e0445389abd3",
        "name": "Cheryl Haley",
        "email": "andreajohnson@example.org",
        "address": "095 Kevin Ramp\nWest Christina, OR 87967, Cape Town",
        "join_date": "2021-07-31",
        "location": {
            "type": "Point",
            "coordinates": [
                18.4241,
                -33.9249
            ]
        }
    },
    {
        "user_id": "31b7057f-4066-48f2-aed4-c1586dec0807",
        "name": "Scott Lewis",
        "email": "wpierce@example.net",
        "address": "0359 Robert Dale\nStevenville, OK 42143, Sacramento",
        "join_date": "2021-09-18",
        "location": {
            "type": "Point",
            "coordinates": [
                -121.4944,
                38.5816
            ]
        }
    },
    {
        "user_id": "939b97a8-3597-45e8-8cd1-a85a91bfd8da",
        "name": "Ana Morales",
        "email": "ccarney@example.org",
        "address": "542 Clark Dale\nSouth Kristi, ND 80969, Los Angeles",
        "join_date": "2021-04-11",
        "location": {
            "type": "Point",
            "coordinates": [
                -118.2437,
                34.0522
            ]
        }
    },
    {
        "user_id": "bea97909-c76a-4e9a-9c41-d1870d311001",
        "name": "Connie Franklin",
        "email": "erin38@example.com",
        "address": "52578 Miller Brook\nLake Jonathan, MT 86779, Moscow",
        "join_date": "2021-09-26",
        "location": {
            "type": "Point",
            "coordinates": [
                37.6173,
                55.7558
            ]
        }
    },
    {
        "user_id": "2248c23d-62a4-40c0-a808-8e5eb95530eb",
        "name": "Sally Simmons",
        "email": "xmendoza@example.net",
        "address": "9031 Williams Bridge Apt. 962\nSouth Taylor, AL 38325, Tokyo",
        "join_date": "2020-04-29",
        "location": {
            "type": "Point",
            "coordinates": [
                139.6917,
                35.6895
            ]
        }
    },
    {
        "user_id": "1cbe4ee4-13fc-4ced-998a-7d13733e8723",
        "name": "Christina Smith",
        "email": "zponce@example.net",
        "address": "03462 Misty Rapids Suite 717\nFrazierside, CA 42061, Minneapolis",
        "join_date": "2022-04-22",
        "location": {
            "type": "Point",
            "coordinates": [
                -93.265,
                44.9778
            ]
        }
    },
    {
        "user_id": "d6c04bff-bf35-4db1-887d-0868e466ebf8",
        "name": "Tristan Mercer",
        "email": "ginafry@example.com",
        "address": "03969 Thompson Villages Apt. 173\nWest Steventown, CT 44895, Cape Town",
        "join_date": "2021-02-28",
        "location": {
            "type": "Point",
            "coordinates": [
                18.4241,
                -33.9249
            ]
        }
    },
    {
        "user_id": "115dd508-b3e8-4c6e-92db-b3a30053f4e1",
        "name": "Joseph Chen",
        "email": "jmills@example.com",
        "address": "430 Shawn Loop\nSouth Maryview, MT 22101, Oakland",
        "join_date": "2020-03-22",
        "location": {
            "type": "Point",
            "coordinates": [
                -122.2712,
                37.8044
            ]
        }
    },
    {
        "user_id": "00897e08-a59d-470b-9e74-89f0ee4f94e0",
        "name": "Charles Blackwell",
        "email": "garnerleslie@example.net",
        "address": "Unit 0280 Box 0487\nDPO AP 20872, Colorado Springs",
        "join_date": "2020-10-04",
        "location": {
            "type": "Point",
            "coordinates": [
                -104.8214,
                38.8339
            ]
        }
    },
    {
        "user_id": "f76f393f-8f3b-4b21-af97-f775325a830d",
        "name": "Monica Woods",
        "email": "kerrymartinez@example.org",
        "address": "56509 Johnson Port\nNew Christianfort, GA 64341, Phoenix",
        "join_date": "2022-11-27",
        "location": {
            "type": "Point",
            "coordinates": [
                -112.074,
                33.4484
            ]
        }
    },
    {
        "user_id": "19d8ad4d-e1fa-4df2-a5dc-8933ccee35c3",
        "name": "Rachel Wright",
        "email": "christopherhoward@example.com",
        "address": "319 Jacob Glen\nErinview, NY 43984, Colorado Springs",
        "join_date": "2020-05-08",
        "location": {
            "type": "Point",
            "coordinates": [
                -104.8214,
                38.8339
            ]
        }
    },
    {
        "user_id": "038d5990-f531-453a-82f3-eb42f90a79df",
        "name": "Rachael Hurley",
        "email": "hensonsara@example.net",
        "address": "8691 Nicholas Track Suite 599\nSouth Lauren, MO 83946, Shanghai",
        "join_date": "2022-03-02",
        "location": {
            "type": "Point",
            "coordinates": [
                121.4737,
                31.2304
            ]
        }
    },
    {
        "user_id": "e2f5718a-d12c-4c65-a1d7-e4c81c10926f",
        "name": "Jerry Woods",
        "email": "sellerssamuel@example.net",
        "address": "0442 Heather Mills\nNorth Paul, CA 42884, San Francisco",
        "join_date": "2021-11-20",
        "location": {
            "type": "Point",
            "coordinates": [
                -122.4194,
                37.7749
            ]
        }
    },
    {
        "user_id": "79907b52-833c-4461-bde9-247fe94d76e6",
        "name": "Patrick Young",
        "email": "jamesrice@example.org",
        "address": "8677 Williams Crescent Apt. 605\nEast Bethany, TN 19773, Cleveland",
        "join_date": "2023-10-03",
        "location": {
            "type": "Point",
            "coordinates": [
                -81.6944,
                41.4993
            ]
        }
    },
    {
        "user_id": "ea778930-4e43-44e3-aa27-f48971c36367",
        "name": "Emily Smith",
        "email": "vincent18@example.com",
        "address": "58030 Armstrong Parkways\nChristopherberg, MT 54079, Dallas",
        "join_date": "2022-05-02",
        "location": {
            "type": "Point",
            "coordinates": [
                -96.797,
                32.7767
            ]
        }
    },
    {
        "user_id": "89eefaf5-ec97-4aee-8a46-f9b055a8488d",
        "name": "Ashley Kelly",
        "email": "andrea01@example.net",
        "address": "7597 Amanda Landing\nConnietown, DC 53646, Dallas",
        "join_date": "2021-10-17",
        "location": {
            "type": "Point",
            "coordinates": [
                -96.797,
                32.7767
            ]
        }
    },
    {
        "user_id": "0473f9c2-fb46-4919-b32d-170ac7f18b89",
        "name": "Steven Vega",
        "email": "maureen89@example.com",
        "address": "2537 Hale Gardens\nSouth Markshire, NM 31361, Portland",
        "join_date": "2023-07-30",
        "location": {
            "type": "Point",
            "coordinates": [
                -122.675,
                45.5051
            ]
        }
    },
    {
        "user_id": "e6fdcd57-84d8-4beb-af22-87abb9ca1932",
        "name": "Mary Hart",
        "email": "evelyn21@example.org",
        "address": "9391 Gordon Plaza\nPopemouth, WI 69093, Miami",
        "join_date": "2020-09-01",
        "location": {
            "type": "Point",
            "coordinates": [
                -80.1918,
                25.7617
            ]
        }
    },
    {
        "user_id": "72029a37-4a17-4cbc-acfc-90122e1f7936",
        "name": "Melinda Holden",
        "email": "cbaker@example.com",
        "address": "542 Ashley Ranch\nNicolefort, NC 65836, Bangkok",
        "join_date": "2020-05-07",
        "location": {
            "type": "Point",
            "coordinates": [
                100.5018,
                13.7563
            ]
        }
    },
    {
        "user_id": "30320cb8-efa2-4516-bc9a-f6c74309aff1",
        "name": "Richard Martin",
        "email": "mshelton@example.net",
        "address": "81851 Kelli Locks Suite 836\nEast Michaeltown, GU 97142, Santa Ana",
        "join_date": "2020-03-19",
        "location": {
            "type": "Point",
            "coordinates": [
                -117.8677,
                33.7455
            ]
        }
    },
    {
        "user_id": "16ef96ca-a261-43fd-826b-9c5e84f64990",
        "name": "Erin Duffy",
        "email": "bauermark@example.com",
        "address": "2713 Sarah Square\nPort Jeffrey, AL 74934, Philadelphia",
        "join_date": "2022-05-30",
        "location": {
            "type": "Point",
            "coordinates": [
                -75.1652,
                39.9526
            ]
        }
    },
    {
        "user_id": "c26ab4e1-370b-44e3-b393-352301bf28e7",
        "name": "Christina Nunez",
        "email": "bonillatheresa@example.com",
        "address": "26678 Amanda Wells Apt. 845\nAlicechester, MA 58716, New York",
        "join_date": "2020-05-12",
        "location": {
            "type": "Point",
            "coordinates": [
                -74.006,
                40.7128
            ]
        }
    },
    {
        "user_id": "a39fa0ff-6330-4ca4-8b4a-7eec8c1d6d4b",
        "name": "Kyle Brown",
        "email": "cschaefer@example.com",
        "address": "7280 Ortega Row Apt. 820\nNew Joshua, CT 52537, Oklahoma City",
        "join_date": "2023-08-25",
        "location": {
            "type": "Point",
            "coordinates": [
                -97.5164,
                35.4676
            ]
        }
    },
    {
        "user_id": "5311cd9f-0150-443e-b752-a86fd443aab0",
        "name": "Lisa Jones",
        "email": "tammy05@example.net",
        "address": "322 Carrillo Courts\nEast Robert, NC 80559, Wichita",
        "join_date": "2021-04-29",
        "location": {
            "type": "Point",
            "coordinates": [
                -97.3301,
                37.6872
            ]
        }
    },
    {
        "user_id": "ca2d5cea-b29e-4473-91e5-13f51a007526",
        "name": "Melissa Stewart",
        "email": "caitlinsmith@example.net",
        "address": "7000 Weeks Parks\nLaurafort, ID 06127, Omaha",
        "join_date": "2022-12-19",
        "location": {
            "type": "Point",
            "coordinates": [
                -95.9345,
                41.2565
            ]
        }
    },
    {
        "user_id": "7aa10897-fc7c-4686-9e9e-40f332dd7ae0",
        "name": "Timothy Dunlap",
        "email": "kellie44@example.com",
        "address": "945 Mosley Dale\nLake Timothy, AZ 15852, Long Beach",
        "join_date": "2020-04-28",
        "location": {
            "type": "Point",
            "coordinates": [
                -118.1937,
                33.7701
            ]
        }
    },
    {
        "user_id": "1d1a11ad-de4f-48f0-a0bf-dab7e7395ae6",
        "name": "Kimberly Wilson",
        "email": "nicole85@example.org",
        "address": "247 Michael Crest Suite 318\nWest Megan, ME 86641, Baltimore",
        "join_date": "2020-06-20",
        "location": {
            "type": "Point",
            "coordinates": [
                -76.6122,
                39.2904
            ]
        }
    },
    {
        "user_id": "2a94febd-d966-485f-aa17-eaa29fa5bda8",
        "name": "Randall Turner",
        "email": "reneewilson@example.com",
        "address": "82075 Perez Walks\nLake Donna, MS 01677, Las Vegas",
        "join_date": "2021-03-05",
        "location": {
            "type": "Point",
            "coordinates": [
                -115.1398,
                36.1699
            ]
        }
    },
    {
        "user_id": "7ccfc324-8adc-4f94-8193-28d207fbbb3d",
        "name": "Tracy Bell",
        "email": "kaylamendoza@example.com",
        "address": "5427 Carter Tunnel\nNorth Mariahfort, MH 55668, Miami",
        "join_date": "2020-04-21",
        "location": {
            "type": "Point",
            "coordinates": [
                -80.1918,
                25.7617
            ]
        }
    },
    {
        "user_id": "536f82cf-c539-4ca9-a497-eecbb6bd93b3",
        "name": "Brooke Campbell",
        "email": "russell21@example.org",
        "address": "594 Julia Junctions\nLake Christopher, IA 98704, Tucson",
        "join_date": "2023-08-10",
        "location": {
            "type": "Point",
            "coordinates": [
                -110.9747,
                32.2226
            ]
        }
    },
    {
        "user_id": "97585ae4-f3a9-43ef-a6b1-9a706bdd12cf",
        "name": "Kara Garcia",
        "email": "louis49@example.com",
        "address": "416 Brown Crossing\nPort Jeffreyview, TN 72509, Toronto",
        "join_date": "2022-03-05",
        "location": {
            "type": "Point",
            "coordinates": [
                -79.347015,
                43.65107
            ]
        }
    },
    {
        "user_id": "7a677231-2d83-48df-8f91-11b22c9e6049",
        "name": "Greg Carr",
        "email": "daniellemiller@example.com",
        "address": "551 Jones Island\nNew Brandon, PA 35995, Atlanta",
        "join_date": "2020-06-11",
        "location": {
            "type": "Point",
            "coordinates": [
                -84.388,
                33.749
            ]
        }
    },
    {
        "user_id": "26b4bb70-d980-41ae-aa81-53088ff063be",
        "name": "Wendy Le",
        "email": "heather96@example.net",
        "address": "77814 Weaver Fords Apt. 833\nHolmesland, FM 49630, Seattle",
        "join_date": "2020-06-16",
        "location": {
            "type": "Point",
            "coordinates": [
                -122.3321,
                47.6062
            ]
        }
    },
    {
        "user_id": "ee4981e2-dba5-492f-b689-f52a6d1b72af",
        "name": "Lisa Ferrell",
        "email": "james18@example.org",
        "address": "USNS Ayers\nFPO AP 11459, Washington D.C.",
        "join_date": "2021-07-18",
        "location": {
            "type": "Point",
            "coordinates": [
                -77.0369,
                38.9072
            ]
        }
    },
    {
        "user_id": "b9862caa-654c-4b63-b99a-f23dfeb6d723",
        "name": "Jasmin Terry",
        "email": "linda34@example.net",
        "address": "850 Kevin Plains Apt. 362\nPadillachester, IN 27266, Detroit",
        "join_date": "2020-06-29",
        "location": {
            "type": "Point",
            "coordinates": [
                -83.0458,
                42.3314
            ]
        }
    },
    {
        "user_id": "0712870c-296b-4f4a-84ba-b61e83e21e36",
        "name": "Krystal Reid",
        "email": "flemingdarryl@example.org",
        "address": "493 Mclaughlin Brook\nMarquezton, WY 47756, Minneapolis",
        "join_date": "2020-11-28",
        "location": {
            "type": "Point",
            "coordinates": [
                -93.265,
                44.9778
            ]
        }
    },
    {
        "user_id": "9798a48b-7575-4d8e-a9b9-d21ce3ec2c9d",
        "name": "Michael Horton",
        "email": "michael94@example.org",
        "address": "Unit 8784 Box 7054\nDPO AP 74921, Long Beach",
        "join_date": "2023-06-15",
        "location": {
            "type": "Point",
            "coordinates": [
                -118.1937,
                33.7701
            ]
        }
    },
    {
        "user_id": "50b8d45b-717f-428c-9cd7-de418f79bded",
        "name": "Audrey Anderson",
        "email": "xhughes@example.org",
        "address": "289 Cameron Mission Apt. 440\nMichaelbury, AZ 48591, Louisville",
        "join_date": "2020-10-17",
        "location": {
            "type": "Point",
            "coordinates": [
                -85.7585,
                38.2527
            ]
        }
    },
    {
        "user_id": "cbb1a999-d434-46ab-a74e-02213d5915c6",
        "name": "Jody Walls",
        "email": "lisahill@example.org",
        "address": "03536 Christina Orchard Suite 239\nNew Rebecca, SC 69610, Dubai",
        "join_date": "2023-07-24",
        "location": {
            "type": "Point",
            "coordinates": [
                55.296249,
                25.276987
            ]
        }
    },
    {
        "user_id": "278d3d2f-ef4b-4176-9c3f-21888e0f156f",
        "name": "Tammy Medina",
        "email": "alvarezchad@example.net",
        "address": "220 Mary Springs Apt. 590\nBatesshire, NJ 97257, Tucson",
        "join_date": "2022-01-11",
        "location": {
            "type": "Point",
            "coordinates": [
                -110.9747,
                32.2226
            ]
        }
    },
    {
        "user_id": "b46046b9-eb5c-4707-ae46-879ccf23941d",
        "name": "Evan Cole",
        "email": "hartmanantonio@example.com",
        "address": "53355 Robin Burgs Apt. 864\nLake Marymouth, NE 99614, Kansas City",
        "join_date": "2022-08-24",
        "location": {
            "type": "Point",
            "coordinates": [
                -94.5786,
                39.0997
            ]
        }
    },
    {
        "user_id": "a0a791c4-063e-4fa0-a473-96a04db08172",
        "name": "Jonathan Johnson",
        "email": "cameronjones@example.net",
        "address": "91300 Kathryn Ranch Apt. 762\nWest Jenniferfort, NC 26420, Dallas",
        "join_date": "2022-06-23",
        "location": {
            "type": "Point",
            "coordinates": [
                -96.797,
                32.7767
            ]
        }
    },
    {
        "user_id": "48485a10-3bbe-4b02-83a2-3f8c35858e5f",
        "name": "Kayla Anderson",
        "email": "tforbes@example.org",
        "address": "240 Rachel Bypass\nWest Peggy, AK 09616, Kansas City",
        "join_date": "2023-11-04",
        "location": {
            "type": "Point",
            "coordinates": [
                -94.5786,
                39.0997
            ]
        }
    },
    {
        "user_id": "1c3993cc-d500-42f9-805f-13d55511f2b5",
        "name": "Danny Smith",
        "email": "mcguirejodi@example.com",
        "address": "257 Nichole Road Suite 129\nLake Michaelmouth, MI 06308, Istanbul",
        "join_date": "2023-04-13",
        "location": {
            "type": "Point",
            "coordinates": [
                28.9784,
                41.0082
            ]
        }
    },
    {
        "user_id": "b84c2ba6-df02-441b-a7c8-a8f4a8f3a6f1",
        "name": "Danielle Cooper",
        "email": "rodney51@example.com",
        "address": "5885 Preston Fork\nNew Monique, SC 89085, Chicago",
        "join_date": "2022-11-03",
        "location": {
            "type": "Point",
            "coordinates": [
                -87.6298,
                41.8781
            ]
        }
    },
    {
        "user_id": "37746907-53fb-4871-a761-2267f4859d84",
        "name": "Raymond Butler",
        "email": "alvarezmisty@example.net",
        "address": "666 Pace Unions Apt. 574\nSuzanneport, SC 42296, Atlanta",
        "join_date": "2023-05-26",
        "location": {
            "type": "Point",
            "coordinates": [
                -84.388,
                33.749
            ]
        }
    },
    {
        "user_id": "373eae55-d8f5-42d2-b437-10cff870cfd7",
        "name": "Brett Powers",
        "email": "jonesdiamond@example.com",
        "address": "957 Ian Valley\nFordchester, RI 46885, Rio de Janeiro",
        "join_date": "2020-02-12",
        "location": {
            "type": "Point",
            "coordinates": [
                -43.1729,
                -22.9068
            ]
        }
    },
    {
        "user_id": "1ae2f0fa-b7c9-40af-8718-6f78dcc0c59c",
        "name": "Julie Martin",
        "email": "swansonsarah@example.org",
        "address": "804 Mcneil Flat Apt. 908\nRachelport, FL 87846, Berlin",
        "join_date": "2022-04-30",
        "location": {
            "type": "Point",
            "coordinates": [
                13.405,
                52.52
            ]
        }
    },
    {
        "user_id": "60ef3c64-e20c-4262-a6cc-af64b23de7d7",
        "name": "Andrew Reed",
        "email": "gabriel02@example.com",
        "address": "54961 Andrea Tunnel\nLake Christopherhaven, SC 52306, San Diego",
        "join_date": "2023-07-28",
        "location": {
            "type": "Point",
            "coordinates": [
                -117.1611,
                32.7157
            ]
        }
    },
    {
        "user_id": "a872e15e-39bf-4158-9cca-8609030ad78e",
        "name": "Dawn Jackson",
        "email": "paul12@example.net",
        "address": "20073 Kevin Street Apt. 750\nScottbury, ME 05226, Sydney",
        "join_date": "2022-05-12",
        "location": {
            "type": "Point",
            "coordinates": [
                151.2093,
                -33.8688
            ]
        }
    },
    {
        "user_id": "3886f4cf-ed77-49c1-bc2b-21de8b84d72c",
        "name": "Brittany Garcia",
        "email": "lestrada@example.net",
        "address": "0414 Davis Ville\nJohnsonstad, NM 46624, Seattle",
        "join_date": "2022-10-28",
        "location": {
            "type": "Point",
            "coordinates": [
                -122.3321,
                47.6062
            ]
        }
    },
    {
        "user_id": "e6be9a07-5041-489b-88fd-607bfa09d513",
        "name": "Edward Kelly",
        "email": "garrettjesus@example.org",
        "address": "51868 Hart Land Apt. 923\nPort Theresaland, AS 36747, New York",
        "join_date": "2023-09-20",
        "location": {
            "type": "Point",
            "coordinates": [
                -74.006,
                40.7128
            ]
        }
    },
    {
        "user_id": "4a737b79-ae2d-4f91-9dd3-60568a7d4c8b",
        "name": "Leroy Cunningham",
        "email": "ywhite@example.org",
        "address": "057 Deanna Lodge\nNorth Lisafort, GU 90819, San Jose",
        "join_date": "2021-01-17",
        "location": {
            "type": "Point",
            "coordinates": [
                -121.8863,
                37.3382
            ]
        }
    },
    {
        "user_id": "4dbac614-e940-4b48-bdf0-318c01b6264b",
        "name": "Nicole Garcia",
        "email": "colleen49@example.org",
        "address": "2620 Mary Hill Suite 296\nLopezchester, GA 20974, Bangkok",
        "join_date": "2023-12-04",
        "location": {
            "type": "Point",
            "coordinates": [
                100.5018,
                13.7563
            ]
        }
    },
    {
        "user_id": "55060e57-24ed-49e3-96a3-a02fa2d2ec5c",
        "name": "Tony Miller",
        "email": "joeadams@example.org",
        "address": "04221 Wiley Hill\nNorth Adrienneville, MI 69212, Hong Kong",
        "join_date": "2020-06-14",
        "location": {
            "type": "Point",
            "coordinates": [
                114.1694,
                22.3193
            ]
        }
    },
    {
        "user_id": "9b4ca8c4-be30-4832-b4c7-7b03db91fdf3",
        "name": "James Mcmillan",
        "email": "pnelson@example.com",
        "address": "951 Ward Dam\nEast Elizabethburgh, MN 50375, Tucson",
        "join_date": "2021-11-16",
        "location": {
            "type": "Point",
            "coordinates": [
                -110.9747,
                32.2226
            ]
        }
    },
    {
        "user_id": "10a673a2-39f7-4999-a6fe-819fcba240ef",
        "name": "Gilbert Long",
        "email": "elizabethstewart@example.net",
        "address": "35754 David Burgs\nCameronside, IA 92408, Portland",
        "join_date": "2022-08-04",
        "location": {
            "type": "Point",
            "coordinates": [
                -122.675,
                45.5051
            ]
        }
    },
    {
        "user_id": "6d3f97d2-c199-4e31-8490-f5ecf614ff4d",
        "name": "Charles Ramirez",
        "email": "thomascynthia@example.net",
        "address": "4304 Mccoy Club\nNorth Justin, NV 50136, Nashville",
        "join_date": "2020-10-13",
        "location": {
            "type": "Point",
            "coordinates": [
                -86.7816,
                36.1627
            ]
        }
    },
    {
        "user_id": "09295a0c-88cd-40f5-9303-948cff691f31",
        "name": "Mary Turner",
        "email": "nicholsonrebecca@example.org",
        "address": "6001 Turner Crossing Suite 311\nEast Laurie, CT 99224, El Paso",
        "join_date": "2021-06-15",
        "location": {
            "type": "Point",
            "coordinates": [
                -106.485,
                31.7619
            ]
        }
    },
    {
        "user_id": "ec3bbde3-d4eb-45b7-be3c-11457506a7e2",
        "name": "Aaron Jones",
        "email": "frankphillips@example.org",
        "address": "87093 Ashley Parkways\nMichellechester, OK 84931, Mumbai",
        "join_date": "2021-06-01",
        "location": {
            "type": "Point",
            "coordinates": [
                72.8777,
                19.076
            ]
        }
    },
    {
        "user_id": "4f404616-90b2-42a0-ac82-6b07b70ba930",
        "name": "Joseph Martinez",
        "email": "courtney09@example.org",
        "address": "8359 Sanders Trace Suite 236\nSouth Stacey, MD 62395, Detroit",
        "join_date": "2021-08-12",
        "location": {
            "type": "Point",
            "coordinates": [
                -83.0458,
                42.3314
            ]
        }
    },
    {
        "user_id": "59d3bbb3-ec32-494e-8e8a-f835e8baa38f",
        "name": "Eric Jones",
        "email": "mercadoeric@example.net",
        "address": "2341 Bray Turnpike Apt. 281\nWalterton, MD 09507, Memphis",
        "join_date": "2020-10-01",
        "location": {
            "type": "Point",
            "coordinates": [
                -90.049,
                35.1495
            ]
        }
    },
    {
        "user_id": "e79eac95-b5d0-4926-ba60-0cfe142b6d1c",
        "name": "Joshua Gentry",
        "email": "omararellano@example.net",
        "address": "33877 Greene Plain\nNew Jennifertown, GA 43178, Shanghai",
        "join_date": "2021-08-15",
        "location": {
            "type": "Point",
            "coordinates": [
                121.4737,
                31.2304
            ]
        }
    },
    {
        "user_id": "9c04d73d-1e57-4cba-ad86-a2c50cc64077",
        "name": "Amanda James",
        "email": "fcarter@example.net",
        "address": "55998 Kevin Station Apt. 462\nLake Travisfort, AZ 06176, Bakersfield",
        "join_date": "2023-08-07",
        "location": {
            "type": "Point",
            "coordinates": [
                -119.0187,
                35.3733
            ]
        }
    },
    {
        "user_id": "0d358a5c-6239-4681-a346-99995a3fb450",
        "name": "Matthew Brady",
        "email": "kmiller@example.net",
        "address": "917 Manning Ranch\nRiveraland, OK 84907, San Francisco",
        "join_date": "2023-05-26",
        "location": {
            "type": "Point",
            "coordinates": [
                -122.4194,
                37.7749
            ]
        }
    },
    {
        "user_id": "a3796157-f938-452a-8322-2e97796e9cf5",
        "name": "Timothy Pham",
        "email": "theresa12@example.org",
        "address": "15938 Bell Ville Suite 589\nHermanstad, MD 90972, Toronto",
        "join_date": "2021-04-10",
        "location": {
            "type": "Point",
            "coordinates": [
                -79.347015,
                43.65107
            ]
        }
    },
    {
        "user_id": "41bdecc5-6653-4ea3-8f50-e8c4c5f78400",
        "name": "Gary Gonzalez",
        "email": "andrewmoore@example.net",
        "address": "87226 Shawn Locks Suite 934\nCollinsshire, LA 41544, Oklahoma City",
        "join_date": "2023-05-30",
        "location": {
            "type": "Point",
            "coordinates": [
                -97.5164,
                35.4676
            ]
        }
    },
    {
        "user_id": "8e4c816b-50f1-4847-8a91-bf6f8e63d168",
        "name": "Kelly Scott",
        "email": "vsanchez@example.net",
        "address": "6378 Carla Knoll\nPort Crystalview, TN 10807, Atlanta",
        "join_date": "2020-04-03",
        "location": {
            "type": "Point",
            "coordinates": [
                -84.388,
                33.749
            ]
        }
    },
    {
        "user_id": "9200c766-a6c5-46bc-aa60-166a192bbcba",
        "name": "Nichole Shaffer",
        "email": "chandlerkayla@example.net",
        "address": "844 Andre Canyon Apt. 687\nVeronicamouth, DC 41541, Aurora",
        "join_date": "2020-09-06",
        "location": {
            "type": "Point",
            "coordinates": [
                -104.8319,
                39.7294
            ]
        }
    },
    {
        "user_id": "94016a5f-5509-4d6f-b689-341cc6ec8e1b",
        "name": "Matthew Davis",
        "email": "nicholas30@example.net",
        "address": "93736 Dyer Manor Suite 699\nEricland, GU 43894, Sydney",
        "join_date": "2020-01-28",
        "location": {
            "type": "Point",
            "coordinates": [
                151.2093,
                -33.8688
            ]
        }
    },
    {
        "user_id": "d37ff196-f017-40c9-ad71-326de8e7aa71",
        "name": "Allison Chen",
        "email": "jennifersullivan@example.com",
        "address": "87196 Scott Crossing Apt. 853\nSouth Katherine, MH 52793, Aurora",
        "join_date": "2022-03-27",
        "location": {
            "type": "Point",
            "coordinates": [
                -104.8319,
                39.7294
            ]
        }
    },